City_ID,City,Country,Lat,Lng,Max Temp,Humidity,Cloudiness,Wind Speed,Weather Description
0,Cherskiy,RU,68.75,161.3,4.71,96,100,6.64,overcast clouds
1,Hithadhoo,MV,-0.6,73.0833,81.0,75,16,16.35,few clouds
2,Xingyi,CN,24.1877,102.817,51.53,95,49,3.04,scattered clouds
3,Kavieng,PG,-2.5744,150.7967,82.31,76,15,12.44,light rain
4,Ushuaia,AR,-54.8,-68.3,51.46,62,40,9.22,scattered clouds
5,Albany,US,42.6001,-73.9662,63.88,50,0,4.45,clear sky
6,Jhudo,PK,24.964,69.2968,79.21,30,0,9.19,clear sky
7,Punta Arenas,CL,-53.15,-70.9167,53.71,58,0,34.52,clear sky
8,Hilo,US,19.7297,-155.09,89.28,72,20,9.22,few clouds
9,Aquiraz,BR,-3.9014,-38.3911,82.49,79,11,12.57,few clouds
10,Mackenzie,CA,55.2999,-123.1698,62.82,42,0,2.3,clear sky
11,Pevek,RU,69.7008,170.3133,13.14,90,100,10.51,overcast clouds
12,Bagotville,AU,-28.9833,153.4167,63.86,79,2,9.22,clear sky
13,Westport,US,41.1415,-73.3579,69.82,68,0,9.22,clear sky
14,Nanortalik,GL,60.1432,-45.2371,31.87,68,4,10.65,clear sky
15,San Quintin,MX,30.4833,-115.95,69.93,66,11,11.23,few clouds
16,Norman Wells,CA,65.282,-126.8329,26.64,68,20,0.0,few clouds
17,Cambridge,CA,43.3601,-80.3127,57.83,35,75,16.11,broken clouds
18,Mayya,RU,61.7333,130.2811,29.52,97,100,3.09,overcast clouds
19,Bonthe,SL,7.5264,-12.505,77.83,86,93,4.99,overcast clouds
20,Busselton,AU,-33.65,115.3333,47.07,92,3,7.05,clear sky
21,Qasigiannguit,GL,68.8193,-51.1922,26.85,75,100,4.36,overcast clouds
22,Thompson,CA,55.7435,-97.8558,33.96,100,100,14.97,mist
23,Hermanus,ZA,-34.4187,19.2345,58.8,82,100,15.59,overcast clouds
24,Husavik,IS,66.0449,-17.3389,35.96,95,100,20.89,overcast clouds
25,Shu,KZ,43.5983,73.7614,59.61,14,95,5.53,overcast clouds
26,Cacahuatepec,MX,16.8861,-99.6106,83.26,84,38,4.56,moderate rain
27,Vaini,TO,-21.2,-175.2,78.96,83,20,14.97,few clouds
28,Tuktoyaktuk,CA,69.4541,-133.0374,26.6,74,40,13.8,scattered clouds
29,Carnarvon,AU,-24.8667,113.6333,65.03,63,2,18.72,clear sky
30,Namibe,AO,-15.1961,12.1522,67.73,83,84,7.94,broken clouds
31,Mataura,NZ,-46.1927,168.8643,56.48,59,2,2.64,clear sky
32,Berlevag,NO,70.8578,29.0864,35.55,80,0,8.05,clear sky
33,Abeche,TD,13.8292,20.8324,84.16,24,10,6.51,clear sky
34,Porto Torres,IT,40.835,8.3972,66.38,80,32,9.31,scattered clouds
35,Leningradskiy,RU,69.3833,178.4167,13.39,76,58,5.59,broken clouds
36,Mar Del Plata,AR,-38.0023,-57.5575,53.62,63,0,11.99,clear sky
37,Atuona,PF,-9.8,-139.0333,77.16,78,18,17.69,light rain
38,Rikitea,PF,-23.1203,-134.9692,72.25,74,0,5.84,clear sky
39,Tasiilaq,GL,65.6145,-37.6368,28.56,60,3,6.96,clear sky
40,Manokwari,ID,-0.8667,134.0833,79.27,76,98,2.82,moderate rain
41,Ballina,AU,-28.8667,153.5667,64.02,79,8,11.79,clear sky
42,Faanui,PF,-16.4833,-151.75,79.05,72,18,11.16,few clouds
43,Benguela,AO,-12.5763,13.4055,74.21,83,37,5.53,scattered clouds
44,Jamestown,US,42.097,-79.2353,56.84,31,75,11.5,broken clouds
45,Georgetown,MY,5.4112,100.3354,79.23,89,40,6.91,scattered clouds
46,Hobart,AU,-42.8794,147.3294,52.23,81,100,1.99,overcast clouds
47,Gaoual,GN,11.75,-13.2,77.5,86,97,1.92,overcast clouds
48,Mitsamiouli,KM,-11.3847,43.2844,75.13,75,0,5.44,clear sky
49,La Rioja,ES,42.25,-2.5,53.38,57,2,7.54,clear sky
50,Pisco,PE,-13.7,-76.2167,68.05,60,0,16.11,clear sky
51,Raga,SS,8.4596,25.678,75.69,76,89,3.74,light rain
52,Batemans Bay,AU,-35.7167,150.1833,54.1,63,1,3.38,clear sky
53,Mahebourg,MU,-20.4081,57.7,71.89,68,40,14.97,scattered clouds
54,Doka,SD,13.5167,35.7667,78.71,54,4,4.41,clear sky
55,Lavrentiya,RU,65.5833,-171.0,27.54,79,34,4.54,scattered clouds
56,La Ronge,CA,55.1001,-105.2842,46.62,39,75,6.91,broken clouds
57,Yar-Sale,RU,66.8333,70.8333,40.44,89,100,8.88,overcast clouds
58,Baturaja,ID,-4.1333,104.1667,73.38,96,100,1.7,light rain
59,Lagoa,PT,39.05,-27.9833,67.78,76,100,16.78,overcast clouds
60,Airai,TL,-8.9266,125.4092,59.76,86,80,2.04,broken clouds
61,Byron Bay,AU,-28.65,153.6167,63.95,65,6,11.88,clear sky
62,Nikolskoye,RU,59.7035,30.7861,48.09,82,100,7.14,overcast clouds
63,Cape Town,ZA,-33.9258,18.4232,61.27,78,20,20.71,few clouds
64,Marsaxlokk,MT,35.8419,14.5431,73.08,73,20,14.97,few clouds
65,Castro,BR,-24.7911,-50.0119,60.13,97,100,5.91,overcast clouds
66,Hamilton,US,39.1834,-84.5333,67.75,20,0,17.27,clear sky
67,Kumano,JP,34.3442,132.5894,59.92,84,4,4.7,clear sky
68,Yellowknife,CA,62.456,-114.3525,36.12,51,75,27.63,broken clouds
69,Port Alfred,ZA,-33.5906,26.891,62.19,96,100,13.73,overcast clouds
70,Aleksandrov Gay,RU,50.147,48.5704,48.52,70,100,6.17,overcast clouds
71,Bahia De Caraquez,EC,-0.6,-80.4167,80.78,74,85,13.18,overcast clouds
72,Maceio,BR,-9.6658,-35.7353,80.04,69,20,12.66,few clouds
73,Kapaa,US,22.0752,-159.319,83.1,82,100,12.66,overcast clouds
74,Conde,BR,-7.2597,-34.9075,80.06,65,0,17.27,clear sky
75,Pacific Grove,US,36.6177,-121.9166,67.21,95,100,9.22,overcast clouds
76,Khatanga,RU,71.9667,102.5,30.51,96,100,17.02,light snow
77,New Norfolk,AU,-42.7826,147.0587,51.89,71,100,3.0,overcast clouds
78,Kupang,ID,-10.1667,123.5833,77.99,84,99,5.99,overcast clouds
79,Jutai,BR,-5.1833,-68.9,80.28,87,98,3.94,moderate rain
80,Bluff,NZ,-46.6,168.3333,56.8,68,2,6.26,clear sky
81,Puerto Ayora,EC,-0.7393,-90.3518,78.76,87,96,7.0,overcast clouds
82,Kodiak,US,57.79,-152.4072,47.71,71,100,19.57,overcast clouds
83,Arraial Do Cabo,BR,-22.9661,-42.0278,76.86,78,0,16.11,clear sky
84,Rio Grande,BR,-32.035,-52.0986,62.71,61,16,16.53,few clouds
85,Vestmannaeyjar,IS,63.4427,-20.2734,40.46,65,8,5.32,clear sky
86,Kahului,US,20.8947,-156.47,87.82,73,40,9.22,scattered clouds
87,Avarua,CK,-21.2078,-159.775,78.85,78,75,10.36,broken clouds
88,Coihaique,CL,-45.5752,-72.0662,57.15,44,0,8.05,clear sky
89,Richards Bay,ZA,-28.783,32.0377,70.63,83,85,11.56,light rain
90,Hailey,US,43.5196,-114.3153,72.0,32,0,11.5,clear sky
91,Phangnga,TH,8.4509,98.5298,77.04,95,100,3.44,overcast clouds
92,Iqaluit,CA,63.7506,-68.5145,31.73,86,75,10.36,broken clouds
93,Lulea,SE,65.5842,22.1547,39.27,100,100,1.14,light rain
94,Broome,US,42.2506,-75.833,64.45,45,20,9.22,few clouds
95,Laurel,US,39.0993,-76.8483,69.94,44,0,9.22,clear sky
96,Baykit,RU,61.67,96.37,32.97,76,100,3.94,overcast clouds
97,Barrow,US,71.2906,-156.7887,28.42,64,100,13.8,overcast clouds
98,Wagar,SD,16.1525,36.2032,87.3,40,54,11.88,broken clouds
99,Zhigansk,RU,66.7697,123.3711,17.76,95,99,5.39,overcast clouds
100,Provideniya,RU,64.3833,-173.3,27.99,80,75,8.19,broken clouds
101,Tabou,CI,4.423,-7.3528,75.52,90,91,7.14,light rain
102,Melfort,CA,52.8667,-104.6177,44.73,42,17,11.5,few clouds
103,Chokurdakh,RU,70.6333,147.9167,12.09,96,98,7.56,overcast clouds
104,Buribay,RU,51.9617,58.1592,44.65,83,100,8.72,overcast clouds
105,Halifax,CA,44.6453,-63.5724,64.69,89,75,14.97,broken clouds
106,Chuy,UY,-33.6971,-53.4616,55.72,59,13,10.38,few clouds
107,Vila Velha,BR,-20.3297,-40.2925,78.75,84,40,13.8,scattered clouds
108,Naze,JP,28.3667,129.4833,77.92,89,95,16.62,light rain
109,Sioux Lookout,CA,50.1001,-91.917,41.07,65,75,5.75,broken clouds
110,Wanning,CN,18.8003,110.3967,77.49,82,100,15.82,overcast clouds
111,Isangel,VU,-19.55,169.2667,73.51,68,72,4.61,broken clouds
112,Hastings,GB,50.8552,0.5729,58.75,95,96,10.33,overcast clouds
113,Lazaro Cardenas,MX,17.9583,-102.2,83.98,77,96,5.53,light rain
114,Muros,ES,42.7762,-9.0603,65.08,90,22,7.07,few clouds
115,Anloga,GH,5.7947,0.8973,79.02,82,100,10.38,overcast clouds
116,Kruisfontein,ZA,-34.0033,24.7314,59.49,92,100,14.9,overcast clouds
117,Charters Towers,AU,-20.1,146.2667,70.75,85,28,8.08,scattered clouds
118,Ramsar,IR,36.9226,50.6426,69.24,88,75,2.3,broken clouds
119,Dondo,MZ,-19.6094,34.7431,76.51,90,0,5.93,clear sky
120,Toyooka,JP,35.5333,134.8333,58.01,92,35,1.83,scattered clouds
121,Bilibino,RU,68.0546,166.4372,-6.02,99,99,2.33,overcast clouds
122,Kilindoni,TZ,-7.9139,39.6668,75.69,74,1,15.28,clear sky
123,Luanda,AO,-8.8368,13.2343,77.0,78,75,12.66,broken clouds
124,Lubango,AO,-14.9172,13.4925,64.99,65,61,3.51,broken clouds
125,Torbay,CA,47.6666,-52.7314,56.39,77,37,1.99,scattered clouds
126,Saldanha,ZA,-33.0117,17.9442,59.05,85,2,18.75,clear sky
127,Nouadhibou,MR,20.931,-17.0347,71.58,78,0,17.27,clear sky
128,Bonavista,CA,48.6499,-53.1147,54.32,77,28,6.96,scattered clouds
129,Qaanaaq,GL,77.484,-69.3632,12.7,82,36,4.56,scattered clouds
130,Dunedin,NZ,-45.8742,170.5036,49.8,72,8,3.0,clear sky
131,Cerro Azul,MX,21.2,-97.7333,86.4,60,16,8.52,few clouds
132,Buin,CL,-33.7333,-70.75,82.72,23,0,3.38,clear sky
133,Tukrah,LY,32.5341,20.5791,72.27,73,73,17.54,light rain
134,Kalaswala,PK,32.2009,74.6491,73.36,47,0,1.23,clear sky
135,Bredasdorp,ZA,-34.5322,20.0403,57.7,83,100,10.4,light rain
136,Souillac,MU,-20.5167,57.5167,71.98,68,40,14.97,scattered clouds
137,Warri,NG,5.5167,5.75,72.59,91,100,3.15,overcast clouds
138,Lalmohan,BD,22.3384,90.7419,79.11,85,0,7.07,clear sky
139,Upernavik,GL,72.7868,-56.1549,26.49,88,97,18.05,overcast clouds
140,Umm Kaddadah,SD,13.6017,26.6876,85.64,19,2,10.98,clear sky
141,Lebu,CL,-37.6167,-73.65,54.55,75,3,21.54,clear sky
142,Severo-Kurilsk,RU,50.6789,156.125,44.91,89,20,8.01,few clouds
143,Ixtapa,MX,20.7,-105.2,87.22,70,40,8.05,scattered clouds
144,Palmer,US,42.1584,-72.3287,64.0,74,40,1.01,scattered clouds
145,Virginia Beach,US,36.8529,-75.978,69.85,54,40,5.75,scattered clouds
146,Dikson,RU,73.5069,80.5464,33.04,98,100,24.11,overcast clouds
147,Ulaangom,MN,49.9811,92.0667,31.23,46,0,5.14,clear sky
148,Otradnoye,RU,59.7775,30.8181,48.25,82,100,7.05,overcast clouds
149,Srednekolymsk,RU,67.45,153.6833,9.3,96,100,6.35,overcast clouds
150,Romitan,UZ,39.9343,64.3814,60.75,39,0,9.22,clear sky
151,Castleblayney,IE,54.1167,-6.7333,45.81,95,0,6.53,clear sky
152,Havoysund,NO,70.9963,24.6622,41.23,81,41,8.97,scattered clouds
153,Celestun,MX,20.8667,-90.4,85.14,68,64,5.41,light rain
154,Eyl,SO,7.9803,49.8164,76.8,88,14,13.31,few clouds
155,Phan Thiet,VN,10.9333,108.1,72.32,88,26,6.85,scattered clouds
156,Grindavik,IS,63.8424,-22.4338,39.67,75,75,18.41,broken clouds
157,Svetlogorsk,BY,52.6333,29.7333,42.75,83,55,7.25,broken clouds
158,Sedro-Woolley,US,48.5039,-122.2361,72.32,51,0,8.05,clear sky
159,Vao,NC,-22.6667,167.4833,68.9,62,9,11.92,clear sky
160,Losal,IN,27.4,74.9167,73.44,34,0,4.79,clear sky
161,Lata,PT,40.1629,-8.3327,64.81,97,25,1.7,scattered clouds
162,Shache,CN,38.4167,77.2406,54.91,19,0,5.95,clear sky
163,Kurikka,FI,62.6167,22.4167,46.09,98,97,6.33,overcast clouds
164,Kieta,PG,-6.2167,155.6333,81.09,76,99,1.77,overcast clouds
165,Hasaki,JP,35.7333,140.8333,70.21,72,100,17.72,overcast clouds
166,Bakchar,RU,57.0186,82.0711,30.09,91,100,4.79,overcast clouds
167,Sao Filipe,CV,14.8961,-24.4956,77.94,82,77,6.58,broken clouds
168,Agirish,RU,61.9247,63.0231,38.3,94,99,3.67,overcast clouds
169,Ouadda,CF,8.0777,22.4007,72.66,74,100,4.05,overcast clouds
170,Thessalon,CA,46.2501,-83.5666,43.09,65,100,17.29,overcast clouds
171,Saint George,US,37.1041,-113.5841,84.43,15,0,3.0,clear sky
172,Butaritari,KI,3.0707,172.7902,81.79,75,100,17.87,overcast clouds
173,Hami,CN,42.8,93.45,51.89,39,0,6.04,clear sky
174,Masvingo,ZW,-20.0637,30.8277,72.05,37,30,6.08,scattered clouds
175,Baruun-Urt,MN,46.6806,113.2792,30.31,45,100,8.08,overcast clouds
176,Cap Malheureux,MU,-19.9842,57.6142,71.47,62,11,7.0,few clouds
177,Kendari,ID,-3.945,122.4989,74.66,95,88,2.62,overcast clouds
178,Saskylakh,RU,71.9167,114.0833,21.15,91,100,11.86,overcast clouds
179,Victoria,HK,22.2855,114.1577,78.33,83,27,5.01,scattered clouds
180,Paamiut,GL,61.994,-49.6678,33.69,57,24,18.57,few clouds
181,Hay River,CA,60.8156,-115.7999,35.58,60,75,25.32,broken clouds
182,Hurghada,EG,27.2574,33.8129,77.04,36,0,6.91,clear sky
183,Taltal,CL,-25.4,-70.4833,60.19,74,24,2.91,few clouds
184,Clive,US,41.603,-93.7241,55.62,45,100,23.02,overcast clouds
185,Izumo,JP,35.3667,132.7667,55.35,91,10,4.99,clear sky
186,Balikpapan,ID,-1.2675,116.8289,77.99,100,40,3.44,scattered clouds
187,Hovd,MN,48.0056,91.6419,27.9,50,7,1.66,clear sky
188,Lompoc,US,34.6391,-120.4579,78.01,84,100,5.75,mist
189,Alofi,NU,-19.0595,-169.9187,82.29,69,47,11.5,scattered clouds
190,Acapulco,MX,16.8634,-99.8901,82.69,82,29,4.18,light rain
191,Zabaykalsk,RU,49.6333,117.3167,30.0,64,7,17.94,clear sky
192,Tiksi,RU,71.6872,128.8694,12.6,93,99,7.92,overcast clouds
193,Kiama,AU,-34.6833,150.8667,61.0,76,0,1.99,clear sky
194,Okato,NZ,-39.2,173.8833,57.9,100,100,0.72,overcast clouds
195,Bosaso,SO,11.2842,49.1816,79.61,55,0,1.99,clear sky
196,Ghanzi,BW,-21.5667,21.7833,75.74,16,2,9.26,clear sky
197,Bubaque,GW,11.2833,-15.8333,81.81,76,69,13.38,light rain
198,Nizwa,OM,22.9333,57.5333,72.68,23,0,1.45,clear sky
199,Bangolo,CI,7.0069,-7.475,70.39,98,30,2.3,light rain
200,Katol,IN,21.2667,78.5833,67.46,73,3,6.51,clear sky
201,Samfya,ZM,-11.3649,29.5565,71.56,25,3,11.41,clear sky
202,Saumur,FR,47.3333,-0.25,63.03,99,98,12.88,overcast clouds
203,San Patricio,US,28.017,-97.5169,90.32,46,57,12.5,broken clouds
204,Roblin,CA,51.23,-101.3565,43.45,52,53,12.73,broken clouds
205,Yugo-Kamskiy,RU,57.7053,55.5894,42.82,92,100,3.29,overcast clouds
206,Kamenka,RU,51.3223,42.7678,37.35,73,36,5.59,scattered clouds
207,San Juan,AR,-31.5375,-68.5364,71.73,14,0,4.54,clear sky
208,Bilma,NE,18.6853,12.9164,82.35,12,0,5.88,clear sky
209,Codrington,AU,-38.2667,141.9667,49.35,90,100,10.4,overcast clouds
210,Sao Paulo De Olivenca,BR,-3.3783,-68.8725,73.92,95,100,2.26,overcast clouds
211,Mecca,SA,21.4267,39.8261,81.7,56,20,0.92,few clouds
212,Pudozh,RU,61.8099,36.5345,44.89,93,100,6.04,overcast clouds
213,Ayan,RU,56.45,138.1667,38.52,65,51,5.39,broken clouds
214,Mount Isa,AU,-20.7333,139.5,69.57,56,55,6.91,broken clouds
215,Dicabisagan,PH,17.0818,122.4157,76.64,89,84,6.46,broken clouds
216,Prieska,ZA,-29.6641,22.7474,74.79,13,67,7.0,broken clouds
217,Hofn,IS,64.2539,-15.2082,39.99,62,44,24.43,scattered clouds
218,Sinnamary,GF,5.3833,-52.95,81.28,81,54,11.81,broken clouds
219,Pathein,MM,16.7833,94.7333,76.23,94,67,6.31,broken clouds
220,Mapiripan,CO,2.8892,-72.1256,83.7,76,94,3.91,overcast clouds
221,Zheleznodorozhnyy,RU,55.7503,38.0042,43.21,76,50,3.49,scattered clouds
222,Abu Dhabi,AE,24.4667,54.3667,84.22,78,0,4.61,clear sky
223,Novoseleznevo,RU,55.6821,69.2056,50.09,63,96,6.26,overcast clouds
224,Coquimbo,CL,-29.9533,-71.3436,60.53,77,20,13.8,few clouds
225,Roald,NO,62.5833,6.1333,51.33,61,40,8.05,scattered clouds
226,Rairangpur,IN,22.2676,86.1751,72.27,89,11,0.22,few clouds
227,Port Hedland,AU,-20.3167,118.5667,60.85,82,6,4.61,clear sky
228,Baghdad,IQ,33.3406,44.4009,73.31,35,0,3.44,clear sky
229,Marsa Matruh,EG,31.3525,27.2453,73.6,64,0,13.8,clear sky
230,Novikovo,RU,51.1537,37.8879,38.89,71,6,1.59,clear sky
231,Sovetskaya Gavan,RU,48.9723,140.2878,46.0,78,100,3.13,overcast clouds
232,Dakar,SN,14.6937,-17.4441,82.53,78,0,6.91,clear sky
233,Klaksvik,FO,62.2266,-6.589,43.72,88,100,27.38,light rain
234,Lesnoy,RU,57.6198,63.0784,43.11,91,31,6.2,scattered clouds
235,Evensk,RU,61.95,159.2333,20.88,78,78,9.06,broken clouds
236,Carutapera,BR,-1.195,-46.02,80.74,75,70,9.28,broken clouds
237,Soure,BR,-0.7167,-48.5233,81.95,75,95,15.26,overcast clouds
238,Makakilo City,US,21.3469,-158.0858,85.44,59,0,9.22,clear sky
239,Hearst,CA,49.6835,-83.6665,46.65,78,92,6.89,overcast clouds
240,Hobyo,SO,5.3505,48.5268,77.81,84,47,16.69,scattered clouds
241,Altoona,US,40.5187,-78.3947,65.23,40,46,1.01,scattered clouds
242,College,US,64.8569,-147.8028,28.8,80,20,6.91,few clouds
243,Tshikapa,CD,-6.4167,20.8,75.9,60,37,0.45,scattered clouds
244,Kununurra,AU,-15.7667,128.7333,78.78,73,97,4.61,overcast clouds
245,Lakatoro,VU,-16.0999,167.4164,77.72,70,78,8.41,broken clouds
246,Bambous Virieux,MU,-20.3428,57.7575,71.85,68,40,14.97,scattered clouds
247,Solnechnyy,RU,50.7214,136.6319,39.88,87,99,1.19,light rain
248,Biak,ID,-0.9131,122.8766,76.77,78,77,3.8,broken clouds
249,Beaupre,CA,47.0443,-70.8953,59.38,100,100,1.14,moderate rain
250,Clyde River,CA,70.4692,-68.5914,23.23,86,75,3.44,broken clouds
251,Bengkulu,ID,-3.8004,102.2655,74.34,90,100,3.51,overcast clouds
252,Ambanja,MG,-13.6833,48.45,72.73,79,94,0.76,overcast clouds
253,Buchanan,LR,5.8808,-10.0467,76.39,87,98,4.65,light rain
254,Healdsburg,US,38.6105,-122.8692,98.1,54,0,0.0,clear sky
255,Salani,IN,29.957,79.7127,56.3,69,0,4.56,clear sky
256,Altay,CN,47.8667,88.1167,42.31,33,97,3.87,overcast clouds
257,Boueni,YT,-12.9025,45.0761,73.38,74,0,7.92,clear sky
258,Manzhouli,CN,49.6,117.4333,30.58,63,6,17.74,clear sky
259,Luderitz,NA,-26.6481,15.1594,65.53,59,100,15.3,overcast clouds
260,La Serena,CL,-29.9078,-71.2542,60.31,77,20,13.8,few clouds
261,Sitka,US,57.0531,-135.33,48.09,76,75,5.23,broken clouds
262,Mayumba,GA,-3.432,10.6554,77.05,90,99,7.54,light rain
263,Cavalcante,BR,-13.7975,-47.4583,84.58,25,48,3.94,scattered clouds
264,Petropavlovsk-Kamchatskiy,RU,53.0452,158.6483,30.79,86,20,6.71,few clouds
265,Atasu,KZ,48.6814,71.6433,51.69,31,100,5.79,overcast clouds
266,Atar,MR,20.5169,-13.0499,89.02,24,30,4.7,scattered clouds
267,High Level,CA,58.5169,-117.136,44.71,57,20,14.97,few clouds
268,Sao Joao Da Barra,BR,-21.6403,-41.0511,78.89,86,4,12.33,clear sky
269,Alta Floresta,BR,-9.8756,-56.0861,93.02,43,20,4.61,few clouds
270,Salalah,OM,17.0151,54.0924,75.9,75,9,2.15,clear sky
271,Steamboat Springs,US,40.485,-106.8317,67.95,17,0,10.36,clear sky
272,Bassila,BJ,9.0081,1.6654,72.82,92,84,4.14,moderate rain
273,Svolvaer,NO,68.2342,14.5683,46.36,57,0,17.27,clear sky
274,Bethel,US,41.3712,-73.414,67.59,62,0,3.44,clear sky
275,Tezpur,IN,26.6333,92.8,71.26,95,6,4.21,clear sky
276,East London,ZA,-33.0153,27.9116,65.35,84,100,8.86,light rain
277,Chimbote,PE,-9.0853,-78.5783,64.69,73,7,11.36,clear sky
278,El Alto,PE,-4.2714,-81.2147,67.66,71,12,17.78,few clouds
279,Ostrovnoy,RU,68.0531,39.5131,43.16,97,100,3.53,light rain
280,Robertsport,LR,6.7533,-11.3686,79.02,82,89,7.56,overcast clouds
281,Buta,CD,2.7858,24.73,68.63,95,95,3.24,light rain
282,Ribeira Grande,PT,38.5167,-28.7,70.2,78,20,15.01,few clouds
283,Kloulklubed,PW,7.0419,134.2556,75.7,77,100,14.7,overcast clouds
284,Navrongo,GH,10.8956,-1.0921,78.71,73,42,4.56,scattered clouds
285,Nikolsk,RU,53.7189,46.0712,40.15,76,100,5.97,overcast clouds
286,Suntar,RU,62.1444,117.6319,25.11,95,96,4.63,overcast clouds
287,Lorengau,PG,-2.0226,147.2712,82.74,69,86,8.75,overcast clouds
288,Labuan,MY,5.2767,115.2417,79.16,94,20,0.0,few clouds
289,Quatre Cocos,MU,-20.2078,57.7625,71.71,67,21,15.3,few clouds
290,Samarai,PG,-10.6167,150.6667,81.52,82,66,10.11,broken clouds
291,Sangin,AF,32.0728,64.8359,64.99,10,0,2.62,clear sky
292,Santa Isabel,BR,-23.3156,-46.2214,69.51,90,89,8.08,overcast clouds
293,Shimoda,JP,34.6667,138.95,68.34,86,82,13.98,broken clouds
294,Marondera,ZW,-18.1853,31.5519,60.17,34,61,5.44,broken clouds
295,Sol-Iletsk,RU,51.1631,54.9918,43.39,77,17,6.49,few clouds
296,Pangkalanbuun,ID,-2.6833,111.6167,73.9,95,100,0.49,overcast clouds
297,Malpe,IN,13.35,74.7167,78.1,92,99,3.67,overcast clouds
298,Douala,CM,4.0483,9.7043,73.44,94,100,2.39,overcast clouds
299,Touros,BR,-5.1989,-35.4608,78.04,75,0,17.07,clear sky
300,Santa Rosa,PH,14.3122,121.1114,82.38,88,100,4.9,overcast clouds
301,Belaya Gora,RU,68.5333,146.4167,10.4,91,100,4.32,overcast clouds
302,Ponta Do Sol,PT,32.6667,-17.1,73.0,68,89,6.53,overcast clouds
303,Lulindi,TZ,-10.8167,39.1333,64.42,93,9,5.68,clear sky
304,Bandarbeyla,SO,9.4942,50.8122,76.91,90,41,11.88,scattered clouds
305,Longyearbyen,SJ,78.2186,15.6401,18.39,88,100,1.36,overcast clouds
306,Koflach,AT,47.0667,15.0833,54.77,94,93,1.68,overcast clouds
307,Esperance,AU,-33.8667,121.9,50.43,86,0,8.08,clear sky
308,Cabo San Lucas,MX,22.8909,-109.9124,89.62,54,0,14.97,clear sky
309,Uddevalla,SE,58.3478,11.9424,51.22,88,100,5.12,overcast clouds
310,Goderich,CA,43.7501,-81.7165,55.9,35,96,17.27,overcast clouds
311,Biu,NG,10.6129,12.1946,73.29,65,87,2.89,overcast clouds
312,Ponta Delgada,PT,37.7333,-25.6667,75.51,88,75,13.8,light rain
313,Zaysan,KZ,47.4667,84.8667,47.44,25,11,3.8,few clouds
314,Kaitangata,NZ,-46.2817,169.8464,52.41,66,4,3.78,clear sky
315,Nanyang,CN,32.9947,112.5328,62.31,60,99,2.33,overcast clouds
316,Bastrop,US,32.7562,-91.8724,84.69,25,0,8.05,clear sky
317,Saint-Philippe,RE,-21.3585,55.7679,67.59,79,28,10.54,scattered clouds
318,Sambava,MG,-14.2667,50.1667,68.88,84,37,12.06,scattered clouds
319,Abong Mbang,CM,3.9833,13.1833,67.32,100,100,3.27,overcast clouds
320,Iraucuba,BR,-3.7461,-39.7833,84.54,50,71,7.78,broken clouds
321,Morden,CA,49.1919,-98.1014,43.09,70,100,10.36,overcast clouds
322,Asnaes,DK,55.8123,11.5013,53.06,97,89,7.56,overcast clouds
323,Guerrero Negro,MX,27.9769,-114.0611,72.18,65,92,13.27,overcast clouds
324,Bloomfield,US,40.8068,-74.1854,70.38,41,0,5.75,clear sky
325,Novo Aripuana,BR,-5.1206,-60.3797,86.49,56,99,1.52,overcast clouds
326,Anadyr,RU,64.75,177.4833,25.3,85,0,2.24,clear sky
327,Yulara,AU,-25.2406,130.9889,61.52,32,99,15.52,overcast clouds
328,Bogalusa,US,30.791,-89.8487,84.99,21,0,4.61,clear sky
329,Ziarat,PK,30.3823,67.7282,50.52,15,0,5.14,clear sky
330,Zeya,RU,53.75,127.2667,42.35,73,100,9.6,overcast clouds
331,Luena,AO,-11.7833,19.9167,68.05,24,8,2.28,clear sky
332,Cockburn Town,TC,21.4612,-71.1419,84.16,70,40,13.8,scattered clouds
333,Camocim,BR,-2.9022,-40.8411,80.91,71,62,18.5,broken clouds
334,Hervey Bay,AU,-25.2986,152.8535,71.02,92,98,8.99,overcast clouds
335,Nome,US,64.5011,-165.4064,33.87,61,0,10.36,clear sky
336,Kaeo,NZ,-35.1,173.7833,58.32,91,25,12.1,scattered clouds
337,Ariquemes,BR,-9.9133,-63.0408,86.5,53,97,2.66,overcast clouds
338,Kangaatsiaq,GL,68.3065,-53.4641,27.79,75,100,9.64,overcast clouds
339,Balabac,PH,7.9868,117.0645,81.07,79,98,13.22,overcast clouds
340,Shiyan,CN,32.6475,110.7781,62.62,74,100,3.76,overcast clouds
341,Ancud,CL,-41.8697,-73.8203,53.83,68,36,3.67,scattered clouds
342,Asau,RO,46.4333,26.4,49.28,93,91,2.73,overcast clouds
343,Pallisa,UG,1.145,33.7094,65.75,90,60,3.78,broken clouds
344,Comodoro Rivadavia,AR,-45.8667,-67.5,69.66,21,0,12.66,clear sky
345,Dudinka,RU,69.4058,86.1778,36.63,98,100,13.09,light rain
346,Aksu,CN,41.1231,80.2644,54.21,25,3,2.53,clear sky
347,Jasper,US,37.2001,-94.3502,82.67,17,0,23.02,clear sky
348,Wukari,NG,7.85,9.7833,73.31,96,100,5.86,moderate rain
349,Gorontalo,ID,0.5412,123.0595,75.74,91,100,2.55,overcast clouds
350,Fort Nelson,CA,58.8053,-122.7002,38.79,52,75,6.91,broken clouds
351,Shetpe,KZ,44.1667,52.1167,54.75,67,100,5.32,overcast clouds
352,Jasdan,IN,22.0333,71.2,77.68,39,16,7.27,few clouds
353,Ampanihy,MG,-24.7,44.75,68.88,74,0,5.82,clear sky
354,Auki,SB,-8.7676,160.7034,80.28,73,100,2.37,overcast clouds
355,Eskilstuna,SE,59.3666,16.5077,49.78,98,100,4.29,overcast clouds
356,Opuwo,NA,-18.0607,13.84,76.39,39,75,9.6,broken clouds
357,Campo Sesenta,MX,27.45,-110.1,90.97,42,2,16.04,clear sky
358,Camacha,PT,33.0833,-16.3333,67.42,78,40,11.5,scattered clouds
359,Xuanhua,CN,40.6103,115.0447,54.37,40,100,1.63,overcast clouds
360,Kutum,SD,14.2,24.6667,76.1,25,53,10.83,broken clouds
361,Erenhot,CN,43.6475,111.9767,42.87,36,17,8.72,few clouds
362,Viedma,AR,-40.8135,-62.9967,66.43,18,0,12.88,clear sky
363,Vasudevanallur,IN,9.2333,77.4167,78.15,78,100,3.87,overcast clouds
364,Tambopata,PE,-12.7333,-69.1833,73.29,94,75,2.3,light rain
365,Igarka,RU,67.4667,86.5833,35.76,82,100,16.2,overcast clouds
366,Maneadero,MX,31.7167,-116.5667,66.09,80,10,4.0,clear sky
367,Bathsheba,BB,13.2167,-59.5167,86.61,66,40,13.8,scattered clouds
368,Imperia,IT,43.9667,7.7833,60.85,87,92,3.0,overcast clouds
369,Tynda,RU,55.1667,124.7167,34.54,97,100,11.34,light snow
370,Cairns,AU,-16.9167,145.7667,75.15,73,99,5.75,overcast clouds
371,Synya,RU,65.3718,58.0387,35.46,90,87,2.57,overcast clouds
372,Maarianhamina,AX,60.0973,19.9348,49.86,93,0,8.05,clear sky
373,Qingdao,CN,36.0986,120.3719,55.0,100,99,2.24,mist
374,Druzhba,UA,52.0428,33.9453,39.11,71,67,4.76,broken clouds
375,Valera,VE,9.3178,-70.6036,78.1,93,93,1.01,overcast clouds
376,Rio Gallegos,AR,-51.6226,-69.2181,68.05,28,40,27.63,scattered clouds
377,San Cristobal,VE,7.7669,-72.225,78.98,66,97,3.74,overcast clouds
378,Changji,CN,44.0167,87.3167,54.39,24,0,6.71,clear sky
379,Beloha,MG,-25.1667,45.05,73.62,51,0,8.72,clear sky
380,Cururupu,BR,-1.8283,-44.8683,79.43,76,64,5.08,broken clouds
381,Sola,VU,-13.8833,167.55,75.87,94,99,0.0,overcast clouds
382,Manggar,ID,-2.8833,108.2667,77.04,87,72,2.26,broken clouds
383,Quimper,FR,48.0,-4.1,63.18,100,100,14.97,light intensity drizzle
384,Cedral,MX,23.8,-100.7333,77.86,36,55,7.36,broken clouds
385,Chicama,PE,-7.8447,-79.1469,61.34,62,9,9.86,clear sky
386,Uchaly,RU,54.2996,59.4521,40.66,87,100,8.08,overcast clouds
387,Ulaanbaatar,MN,47.9077,106.8832,12.33,79,0,2.24,clear sky
388,Gravdal,NO,68.1214,13.5031,44.49,70,20,5.75,few clouds
389,Waitati,NZ,-45.75,170.5667,51.8,70,12,11.25,few clouds
390,Sawakin,SD,19.1059,37.3321,84.67,75,8,4.59,clear sky
391,Nikki,BJ,9.9401,3.2108,73.51,89,100,4.21,overcast clouds
392,Giyani,ZA,-23.3025,30.7187,82.76,31,100,6.58,overcast clouds
393,Humboldt,US,40.6665,-123.9178,81.61,24,2,6.38,clear sky
394,Laiwu,CN,36.1928,117.6569,55.98,66,100,1.88,overcast clouds
395,Americo Brasiliense,BR,-21.7244,-48.1017,81.55,30,17,3.8,few clouds
396,Kavaratti,IN,10.5669,72.642,81.25,70,81,3.58,light rain
397,Te Anau,NZ,-45.4167,167.7167,51.66,52,4,1.95,clear sky
398,Mareeba,AU,-17.0,145.4333,70.52,92,95,3.2,overcast clouds
399,Saint-Leu,RE,-21.15,55.2833,68.83,72,90,2.37,light rain
400,Santa Lucia,ES,27.9117,-15.5407,65.77,83,40,20.71,scattered clouds
401,Xuddur,SO,4.1213,43.8894,72.82,79,42,13.6,scattered clouds
402,Port Elizabeth,ZA,-33.918,25.5701,61.32,99,100,4.0,light rain
403,Nakhon Nayok,TH,14.1667,101.1,73.44,80,100,0.94,overcast clouds
404,Blyznyuky,UA,48.8578,36.5551,41.52,65,5,6.26,clear sky
405,Broken Hill,AU,-31.95,141.4333,53.19,68,0,7.34,clear sky
406,Sedkyrkeshch,RU,61.75,50.9167,41.45,93,75,4.47,broken clouds
407,Rocha,UY,-34.4833,-54.3333,53.17,62,22,9.62,few clouds
408,Nakusp,CA,50.2499,-117.8023,55.74,71,65,2.3,broken clouds
409,Bontang,ID,0.1333,117.5,76.5,90,99,5.1,overcast clouds
410,Gasa,PS,31.5,34.4667,65.88,63,20,3.94,few clouds
411,Port Lincoln,AU,-34.7333,135.8667,54.66,70,100,5.28,overcast clouds
412,Angoche,MZ,-16.2325,39.9086,74.62,77,1,11.5,clear sky
413,Kyabe,TD,9.4515,18.9449,76.28,75,100,1.66,overcast clouds
414,Vila Franca Do Campo,PT,37.7167,-25.4333,75.2,92,89,7.67,overcast clouds
415,Valparaiso,CL,-33.0393,-71.6273,82.04,43,0,20.71,clear sky
416,Kuopio,FI,62.8924,27.677,48.15,93,100,8.05,overcast clouds
417,Luba,GQ,3.4568,8.5547,76.89,86,100,3.58,light rain
418,Baniachang,BD,24.5167,91.3667,75.63,90,2,2.04,clear sky
419,Narsaq,GL,60.9167,-46.05,18.16,68,0,6.78,clear sky
420,Butterworth,MY,5.3991,100.3638,80.35,88,40,6.91,scattered clouds
421,Jiangyou,CN,31.7667,104.7167,61.03,78,100,0.96,overcast clouds
422,Fairbanks,US,64.8378,-147.7164,29.23,81,0,3.44,clear sky
423,Karla,EE,59.3723,24.9275,50.58,93,100,6.91,overcast clouds
424,Ahipara,NZ,-35.1667,173.1667,60.01,62,35,8.95,scattered clouds
425,Buala,SB,-8.145,159.5921,82.0,68,100,2.01,overcast clouds
426,Cabedelo,BR,-6.9811,-34.8339,81.27,73,9,14.81,clear sky
427,Weligama,LK,5.9667,80.4167,76.05,91,91,7.2,overcast clouds
428,Saint-Augustin,CA,51.226,-58.6502,51.31,82,100,6.31,overcast clouds
429,Tilichiki,RU,60.4667,166.1,29.64,96,100,3.49,overcast clouds
430,Dingle,PH,10.9995,122.6711,75.72,91,46,5.66,scattered clouds
431,Monrovia,LR,6.3005,-10.7969,74.97,84,92,5.48,overcast clouds
432,Mogadishu,SO,2.0371,45.3438,77.4,83,97,12.88,overcast clouds
433,Prince Rupert,CA,54.3161,-130.3201,60.89,85,100,9.22,overcast clouds
434,Griffith,US,41.5284,-87.4237,62.22,30,0,21.85,clear sky
435,Ambon,ID,-3.6954,128.1814,78.94,94,40,6.91,scattered clouds
436,Waipawa,NZ,-41.4122,175.5153,49.48,73,100,8.72,overcast clouds
437,Oriximina,BR,-1.7656,-55.8661,88.72,53,80,4.0,broken clouds
438,Kirovskiy,RU,45.0917,133.5136,48.72,92,55,3.27,broken clouds
439,Margate,GB,51.3813,1.3862,56.88,90,87,1.99,overcast clouds
440,Tezu,IN,27.9167,96.1667,70.57,87,6,3.2,clear sky
441,Vidim,RU,56.4088,103.1106,29.3,96,94,4.88,overcast clouds
442,Kazanskaya,RU,45.4106,40.4361,49.87,59,2,11.99,clear sky
443,Emilio Carranza,MX,19.9711,-96.6114,83.55,72,17,14.74,few clouds
444,Tuatapere,NZ,-46.1333,167.6833,53.87,50,0,3.56,clear sky
445,Belz,FR,47.6751,-3.168,63.09,96,100,5.99,overcast clouds
446,Charcas,MX,23.1333,-101.1167,73.44,37,25,6.17,scattered clouds
447,Oussouye,SN,12.485,-16.5469,80.78,81,94,6.62,overcast clouds
448,Coahuayana,MX,18.7333,-103.6833,85.5,75,62,5.5,light rain
449,Altdorf,DE,49.3875,11.3572,55.81,97,100,6.67,light rain
450,Mehamn,NO,71.0357,27.8492,35.51,93,75,5.75,broken clouds
451,Mahibadhoo,MV,3.7833,72.9667,80.22,80,100,23.09,overcast clouds
452,Jiuquan,CN,39.7432,98.5174,47.08,27,100,5.37,overcast clouds
453,Fagersta,SE,60.0042,15.7932,44.44,90,100,3.96,overcast clouds
454,Pryozerne,UA,45.2698,36.3303,54.45,60,0,14.36,clear sky
455,Waingapu,ID,-9.6567,120.2641,78.15,75,82,5.35,broken clouds
456,Ginir,ET,7.1333,40.7,58.73,86,96,4.18,overcast clouds
457,Keti Bandar,PK,24.1447,67.4497,80.92,58,2,11.21,clear sky
458,Jimo,CN,36.3897,120.4622,55.18,100,99,2.24,mist
459,Vanimo,PG,-2.6741,141.3028,77.02,92,99,5.95,overcast clouds
460,Lindi,TZ,-10.0,39.7167,70.97,87,25,3.62,scattered clouds
461,Peniche,PT,39.3558,-9.3811,65.08,90,9,11.88,clear sky
462,Brae,GB,60.3964,-1.353,47.86,64,9,17.83,clear sky
463,Asyut,EG,27.181,31.1837,73.58,46,8,7.45,clear sky
464,Grand Gaube,MU,-20.0064,57.6608,72.0,63,8,7.0,clear sky
465,Ushibuka,JP,32.1906,130.0228,69.01,83,0,4.88,clear sky
466,Mount Gambier,AU,-37.8333,140.7667,49.66,88,99,5.39,overcast clouds
467,North Bend,US,43.4065,-124.2243,72.86,63,0,12.66,clear sky
468,Sauda,NO,59.6506,6.3542,48.69,97,100,4.5,moderate rain
469,Balkanabat,TM,39.5108,54.3671,69.26,35,78,4.97,broken clouds
470,Khuzhir,RU,53.1939,107.3397,35.6,67,100,14.32,overcast clouds
471,Flinders,AU,-34.5833,150.8552,61.05,78,0,4.0,clear sky
472,Eidsvag,NO,62.7767,8.0668,45.25,79,92,4.7,overcast clouds
473,Mvangue,CM,2.9667,11.5167,65.46,100,100,3.2,overcast clouds
474,Seoul,KR,37.5683,126.9778,56.64,100,75,1.14,fog
475,Fare,PF,-16.7,-151.0167,78.94,73,3,10.07,clear sky
476,Marsabit,KE,2.3284,37.9899,68.47,61,86,20.92,overcast clouds
477,Port Blair,IN,11.6667,92.75,79.56,81,77,3.96,broken clouds
478,Presidencia Roque Saenz Pena,AR,-26.7852,-60.4388,84.09,28,1,10.74,clear sky
479,Beyneu,KZ,45.3167,55.2,59.14,41,100,6.13,overcast clouds
480,Sorland,NO,67.667,12.6934,48.06,59,88,12.01,overcast clouds
481,Awbari,LY,26.5921,12.7805,77.76,23,4,2.66,clear sky
482,Laguna,US,38.421,-121.4238,88.02,44,0,1.99,clear sky
483,Troitsk,RU,54.0979,61.5773,45.84,78,99,7.61,overcast clouds
484,Chumikan,RU,54.7183,135.315,42.26,79,91,7.47,overcast clouds
485,Tvoroyri,FO,61.5556,-6.8111,48.27,70,100,28.23,light rain
486,Whitehorse,CA,60.7161,-135.0538,30.09,69,75,3.44,broken clouds
487,Kamina,CD,-8.7386,24.9906,69.06,32,70,0.72,broken clouds
488,Yongan,CN,39.6957,113.6871,49.15,54,100,2.95,overcast clouds
489,Foam Lake,CA,51.65,-103.5343,44.62,47,21,11.74,few clouds
490,Plettenberg Bay,ZA,-34.0527,23.3716,60.37,94,100,15.37,light rain
491,Tevaitoa,PF,-16.7833,-151.5,79.03,72,4,9.82,clear sky
492,Cabra,ES,37.4725,-4.4421,69.71,42,0,3.29,clear sky
493,Sena Madureira,BR,-9.0656,-68.6569,81.01,72,100,0.69,moderate rain
494,Coos Bay,US,43.3665,-124.2179,72.93,44,0,11.41,clear sky
495,Craig,US,40.5153,-107.5464,66.38,15,0,9.57,clear sky
496,Kargil,IN,34.5667,76.1,40.46,53,3,0.83,clear sky
497,Ajdabiya,LY,30.7554,20.2263,74.26,68,0,18.68,clear sky
498,Taganak,PH,6.0833,118.3,80.74,71,100,3.78,overcast clouds
499,Wilmington,US,34.2257,-77.9447,71.94,72,85,1.99,overcast clouds
500,Tura,IN,25.5198,90.2201,69.37,90,0,3.29,clear sky
501,Tual,ID,-5.6667,132.75,82.76,73,100,7.87,overcast clouds
502,Ust-Maya,RU,60.4167,134.5333,22.6,99,77,1.52,broken clouds
503,Russell,US,32.3502,-85.1999,79.88,22,0,6.91,clear sky
504,Kholodnyy,RU,62.7167,147.95,6.35,97,99,1.23,overcast clouds
505,Caxias Do Sul,BR,-29.1681,-51.1794,56.97,96,100,4.27,overcast clouds
506,Lashma,RU,54.9321,41.1438,40.69,75,99,4.14,overcast clouds
507,Sokoto,NG,13.0609,5.239,82.56,54,38,6.13,scattered clouds
508,Murmashi,RU,68.8154,32.8115,41.41,100,75,2.24,mist
509,Zhoucheng,CN,35.9122,116.3117,56.17,63,100,2.04,overcast clouds
510,Cascais,PT,38.6979,-9.4215,66.94,80,0,18.41,clear sky
511,Santa Fe,AR,-31.6333,-60.7,69.24,27,100,9.26,light rain
512,Banda Aceh,ID,5.5577,95.3222,79.39,79,95,12.48,overcast clouds
513,Tamandare,BR,-8.7597,-35.1047,75.72,77,3,8.34,clear sky
514,Montlucon,FR,46.3333,2.6,60.71,94,96,1.99,overcast clouds
515,Kushmurun,KZ,52.4503,64.6311,51.04,60,100,5.93,overcast clouds
516,Taoudenni,ML,22.6783,-3.9836,94.1,9,100,9.24,overcast clouds
517,Caravelas,BR,-17.7125,-39.2481,74.88,77,4,6.46,clear sky
518,Vokhtoga,RU,58.8147,41.0461,35.38,95,60,3.67,broken clouds
519,Plouzane,FR,48.3833,-4.6167,59.05,100,100,6.91,light intensity drizzle
520,Muncie,US,40.1934,-85.3864,64.54,21,5,14.0,clear sky
521,Annau,TM,37.8876,58.516,60.3,41,0,4.61,clear sky
522,Aklavik,CA,68.2191,-135.0107,28.4,64,75,3.44,broken clouds
523,Willowmore,ZA,-33.2926,23.4895,56.55,78,81,6.24,broken clouds
524,Gilgit,PK,35.9221,74.3087,60.98,29,4,4.63,clear sky
525,Belawan,ID,3.7755,98.6832,75.49,93,100,1.21,overcast clouds
526,Tadine,NC,-21.55,167.8833,71.96,57,90,10.2,overcast clouds
527,Kurumkan,RU,54.3,110.3,28.08,79,84,4.25,broken clouds
528,Haines Junction,CA,60.7522,-137.5108,30.15,69,100,2.3,overcast clouds
529,Lovozero,RU,68.005,35.0117,41.81,97,100,2.48,overcast clouds
530,Padang,ID,-0.9492,100.3543,76.1,86,100,2.35,overcast clouds
531,Cidreira,BR,-30.1811,-50.2056,60.85,73,95,17.67,overcast clouds
532,Morro Bay,US,35.3658,-120.8499,87.93,41,34,3.0,scattered clouds
533,Sept-Iles,CA,50.2001,-66.3821,49.05,93,100,25.32,overcast clouds
534,Seymchan,RU,62.8833,152.4333,8.58,97,98,0.34,overcast clouds
